[
    {
		"st_id": "637",
		"st_title": "–ê—Ä—Ö–∏—Ç–µ–∫—Ç—É—Ä–Ω–æ-—Å—Ç—Ä–æ–∏—Ç–µ–ª—å–Ω—ã–π —Ñ–∞–∫—É–ª—å—Ç–µ—Ç –£–ì–ù–¢–£",
		"st_title_en": "Arhitekturno-stroitelnyiy fakultet UGNTU",
		"st_lat": "54.723429",
		"st_long": "56.013616",
		"direction": "–≤ —Å—Ç–æ—Ä. –ú–µ–Ω–¥–µ–ª–µ–µ–≤–∞"
    },
    {
		"st_id": "466",
		"st_title": "–ê—Ä—Ö–∏—Ç–µ–∫—Ç—É—Ä–Ω–æ-—Å—Ç—Ä–æ–∏—Ç–µ–ª—å–Ω—ã–π —Ñ–∞–∫—É–ª—å—Ç–µ—Ç –£–ì–ù–¢–£",
		"st_title_en": "Arhitekturno-stroitelnyiy fakultet UGNTU",
		"st_lat": "54.723636",
		"st_long": "56.013736",
		"direction": "–≤ —Å—Ç–æ—Ä. –†–µ–≤–æ–ª—é—Ü–∏–æ–Ω–Ω–æ–π"
    },
    {
		"st_id": "526",
		"st_title": "–õ–µ—Å–Ω–∞—è",
		"st_title_en": "Lesnaya",
		"st_lat": "54.72335",
		"st_long": "56.015267",
		"direction": "–≤ —Å—Ç–æ—Ä. –¢–†–¶ \"–ü–ª–∞–Ω–µ—Ç–∞\""
    },
    {
		"st_id": "88",
		"st_title": "–õ–µ—Å–Ω–∞—è",
		"st_title_en": "Lesnaya",
		"st_lat": "54.723841",
		"st_long": "56.015326",
		"direction": "–≤ —Å—Ç–æ—Ä. –¢–†–ö \"–ò—Ä–µ–º–µ–ª—å\""
    },
    {
		"st_id": "87",
		"st_title": "–†–µ—Å–ø—É–±–ª–∏–∫–∞–Ω—Å–∫–∏–π –≤—ã—Å—Ç–∞–≤–æ—á–Ω—ã–π –∫–æ–º–ø–ª–µ–∫—Å",
		"st_title_en": "Respublikanskiy vyistavochnyiy kompleks",
		"st_lat": "54.725306",
		"st_long": "56.017937",
		"direction": "–≤ —Å—Ç–æ—Ä. –ó–µ–ª—ë–Ω–∞—è —Ä–æ—â–∞"
    },
    {
		"st_id": "525",
		"st_title": "–†–µ—Å–ø—É–±–ª–∏–∫–∞–Ω—Å–∫–∏–π –≤—ã—Å—Ç–∞–≤–æ—á–Ω—ã–π –∫–æ–º–ø–ª–µ–∫—Å",
		"st_title_en": "Respublikanskiy vyistavochnyiy kompleks",
		"st_lat": "54.726059",
		"st_long": "56.019709",
		"direction": "–≤ —Å—Ç–æ—Ä. –¢–†–¶ \"–ü–ª–∞–Ω–µ—Ç–∞\""
    },
    {
		"st_id": "85",
		"st_title": "–ó–∞–ø–æ–≤–µ–¥–Ω–∏–∫",
		"st_title_en": "Zapovednik",
		"st_lat": "54.727298",
		"st_long": "56.02106",
		"direction": "–≤ —Å—Ç–æ—Ä. –ó–µ–ª—ë–Ω–∞—è —Ä–æ—â–∞"
    },
    {
		"st_id": "84",
		"st_title": "–°–ø–æ—Ä—Ç–∏–≤–Ω—ã–π –∫–æ–º–ø–ª–µ–∫—Å \"–ê–∫ –ô–æ—Ä—Ç\"",
		"st_title_en": "Sportivnyiy kompleks \"Ak Yort\"",
		"st_lat": "54.731535",
		"st_long": "56.02483",
		"direction": "–≤ —Å—Ç–æ—Ä. –ó–µ–ª—ë–Ω–∞—è —Ä–æ—â–∞"
    },
    {
		"st_id": "523",
		"st_title": "–°–ø–æ—Ä—Ç–∏–≤–Ω—ã–π –∫–æ–º–ø–ª–µ–∫—Å \"–ê–∫ –ô–æ—Ä—Ç\"",
		"st_title_en": "Sportivnyiy kompleks \"Ak Yort\"",
		"st_lat": "54.731532",
		"st_long": "56.025355",
		"direction": "–≤ —Å—Ç–æ—Ä. –¢–†–¶ \"–ü–ª–∞–Ω–µ—Ç–∞\""
    },
    {
		"st_id": "638",
		"st_title": "–£–ª. –°–∞–≥–∏—Ç–∞ –ê–≥–∏—à–∞",
		"st_title_en": "Ul. Sagita Agisha",
		"st_lat": "54.726756",
		"st_long": "56.006396",
		"direction": "–≤ —Å—Ç–æ—Ä. –†–µ–≤–æ–ª—é—Ü–∏–æ–Ω–Ω–æ–π"
    },
    {
		"st_id": "271",
		"st_title": "–£–ª. –°–∞–≥–∏—Ç–∞ –ê–≥–∏—à–∞",
		"st_title_en": "Ul. Sagita Agisha",
		"st_lat": "54.7257256",
		"st_long": "56.0083304",
		"direction": "–≤ —Å—Ç–æ—Ä. –ú–µ–Ω–¥–µ–ª–µ–µ–≤–∞"
    },
    {
		"st_id": "144",
		"st_title": "üöã –°–∞–Ω–∞—Ç–æ—Ä–∏–π \"–ó–µ–ª–µ–Ω–∞—è —Ä–æ—â–∞\"",
		"st_title_en": "üöã Sanatoriy \"Zelenaya roscha\"",
		"st_lat": "54.719064",
		"st_long": "56.006792",
		"direction": "–≤ —Ü–µ–Ω—Ç—Ä"
    },
    {
		"st_id": "91",
		"st_title": "–°–∞–Ω–∞—Ç–æ—Ä–∏–π \"–ó–µ–ª–µ–Ω–∞—è —Ä–æ—â–∞\"",
		"st_title_en": "Sanatoriy \"Zelenaya roscha\"",
		"st_lat": "54.71959",
		"st_long": "56.00819",
		"direction": "–≤ —Å—Ç–æ—Ä. –¢–†–ö \"–ò—Ä–µ–º–µ–ª—å\""
    },
    {
		"st_id": "527",
		"st_title": "–°–∞–Ω–∞—Ç–æ—Ä–∏–π \"–ó–µ–ª–µ–Ω–∞—è —Ä–æ—â–∞\"",
		"st_title_en": "Sanatoriy \"Zelenaya roscha\"",
		"st_lat": "54.720843",
		"st_long": "56.010822",
		"direction": "–≤ —Å—Ç–æ—Ä. –¢–†–¶ \"–ü–ª–∞–Ω–µ—Ç–∞\""
    },
    {
		"st_id": "90",
		"st_title": "–ú–∏–∫—Ä–æ—Ä–∞–π–æ–Ω –ù–æ–≤–∏–∫–æ–≤–∫–∞",
		"st_title_en": "Mikrorayon Novikovka",
		"st_lat": "54.721782",
		"st_long": "56.011662",
		"direction": "–≤ —Å—Ç–æ—Ä. –¢–†–ö \"–ò—Ä–µ–º–µ–ª—å\""
    },
    {
        "st_id": "652",
        "st_title": "–®–∫–æ–ª–∞ ‚Ññ94",
        "st_title_en": "SHkola ‚Ññ94",
        "st_lat": "54.72395",
        "st_long": "55.992012",
		"direction": "–≤ –ó–µ–ª–µ–Ω—É—é –†–æ—â—É"
    },
    {
        "st_id": "309",
        "st_title": "–®–∫–æ–ª–∞ ‚Ññ94",
        "st_title_en": "SHkola ‚Ññ94",
        "st_lat": "54.723826",
        "st_long": "55.992527",
		"direction": "–∏–∑ –ó–µ–ª–µ–Ω–æ–π –†–æ—â–∏"
    },
    {
        "st_id": "308",
        "st_title": "–£–ª. –ë–∞—Ä–≥—É–∑–∏–Ω—Å–∫–∞—è",
        "st_title_en": "Ul. Barguzinskaya",
        "st_lat": "54.7225717",
        "st_long": "55.9953063",
		"direction": "–∏–∑ –ó–µ–ª–µ–Ω–æ–π –†–æ—â–∏"
    },
    {
        "st_id": "468",
        "st_title": "–£–ª. –ë–∞—Ä–≥—É–∑–∏–Ω—Å–∫–∞—è",
        "st_title_en": "Ul. Barguzinskaya",
        "st_lat": "54.722333",
        "st_long": "55.995287",
		"direction": "–≤ —Å—Ç–æ—Ä. –ú–µ–Ω–¥–µ–ª–µ–µ–≤–∞"
    },
    {
        "st_id": "650",
        "st_title": "–£–ª. –°—Ç–µ–ø–∞–Ω–∞ –ó–ª–æ–±–∏–Ω–∞",
        "st_title_en": "Ul. Stepana Zlobina",
        "st_lat": "54.719887",
        "st_long": "56.001073",
		"direction": "–≤ —Å—Ç–æ—Ä. –ú–µ–Ω–¥–µ–ª–µ–µ–≤–∞"
    },
    {
        "st_id": "307",
        "st_title": "–£–ª. –°—Ç–µ–ø–∞–Ω–∞ –ó–ª–æ–±–∏–Ω–∞",
        "st_title_en": "Ul. Stepana Zlobina",
        "st_lat": "54.719957",
        "st_long": "56.001638",
		"direction": "–∏–∑ –ó–µ–ª–µ–Ω–æ–π –†–æ—â–∏"
    },
    {
        "st_id": "528",
        "st_title": "–£—Ñ–∏–º—Å–∫–∏–π –∫–æ–ª–ª–µ–¥–∂ —Ä–∞–¥–∏–æ—ç–ª–µ–∫—Ç—Ä–æ–Ω–∏–∫–∏, —Ç–µ–ª–µ–∫–æ–º–º—É–Ω–∏–∫–∞—Ü–∏–π –∏ –±–µ–∑–æ–ø–∞—Å–Ω–æ—Å—Ç–∏",
        "st_title_en": "Ufimskiy kolledj radioelektroniki, telekommunikatsiy i bezopasnosti",
        "st_lat": "54.716258",
        "st_long": "56.00407",
		"direction": "–≤ —Å—Ç–æ—Ä. –¢–†–¶ \"–ü–ª–∞–Ω–µ—Ç–∞\""
    },
    {
        "st_id": "93",
        "st_title": "–£—Ñ–∏–º—Å–∫–∏–π –∫–æ–ª–ª–µ–¥–∂ —Ä–∞–¥–∏–æ—ç–ª–µ–∫—Ç—Ä–æ–Ω–∏–∫–∏, —Ç–µ–ª–µ–∫–æ–º–º—É–Ω–∏–∫–∞—Ü–∏–π –∏ –±–µ–∑–æ–ø–∞—Å–Ω–æ—Å—Ç–∏",
        "st_title_en": "Ufimskiy kolledj radioelektroniki, telekommunikatsiy i bezopasnosti",
        "st_lat": "54.716988",
        "st_long": "56.004371",
		"direction": "–≤ —Å—Ç–æ—Ä. –¢–†–ö \"–ò—Ä–µ–º–µ–ª—å\""
    },
    {
        "st_id": "306",
        "st_title": "–£–ª. –ì—É–±–∞–π–¥—É–ª–ª–∏–Ω–∞",
        "st_title_en": "Ul. Gubaydullina",
        "st_lat": "54.718278",
        "st_long": "56.004982",
		"direction": "–∏–∑ –ó–µ–ª–µ–Ω–æ–π –†–æ—â–∏"
    },
    {
        "st_id": "649",
        "st_title": "–£–ª. –ì—É–±–∞–π–¥—É–ª–ª–∏–Ω–∞",
        "st_title_en": "Ul. Gubaydullina",
        "st_lat": "54.718358",
        "st_long": "56.004172",
		"direction": "–≤ —Å—Ç–æ—Ä. –ú–µ–Ω–¥–µ–ª–µ–µ–≤–∞"
    },
    {
        "st_id": "8682",
        "st_title": "–†–µ—Å–ø—É–±–ª–∏–∫–∞–Ω—Å–∫–∞—è –¥–µ—Ç—Å–∫–∞—è –∫–ª–∏–Ω–∏—á–µ—Å–∫–∞—è –±–æ–ª—å–Ω–∏—Ü–∞",
        "st_title_en": "Respublikanskaya detskaya klinicheskaya bolnitsa",
        "st_lat": "54.713518",
        "st_long": "56.002271",
		"direction": "–≤ —Å—Ç–æ—Ä. –ú–µ–Ω–¥–µ–ª–µ–µ–≤–∞"
    },
    {
        "st_id": "96",
        "st_title": "–†–µ—Å–ø—É–±–ª–∏–∫–∞–Ω—Å–∫–∞—è –¥–µ—Ç—Å–∫–∞—è –∫–ª–∏–Ω–∏—á–µ—Å–∫–∞—è –±–æ–ª—å–Ω–∏—Ü–∞",
        "st_title_en": "Respublikanskaya detskaya klinicheskaya bolnitsa",
        "st_lat": "54.713947",
        "st_long": "56.002085",
		"direction": "–≤ —Å—Ç–æ—Ä. —É–ª. –ü—É–≥–∞—á—ë–≤–∞"
    },
    {
        "st_id": "1148",
        "st_title": "–£—Ñ–∏–º—Å–∫–∏–π –∫–æ–ª–ª–µ–¥–∂ —Ä–∞–¥–∏–æ—ç–ª–µ–∫—Ç—Ä–æ–Ω–∏–∫–∏, —Ç–µ–ª–µ–∫–æ–º–º—É–Ω–∏–∫–∞—Ü–∏–π –∏ –±–µ–∑–æ–ø–∞—Å–Ω–æ—Å—Ç–∏",
        "st_title_en": "Ufimskiy kolledj radioelektroniki, telekommunikatsiy i bezopasnosti",
        "st_lat": "54.71531",
        "st_long": "56.002207",
		"direction": "–≤ —Å—Ç–æ—Ä. –¢–†–ö \"–ò—Ä–µ–º–µ–ª—å\""
    },
    {
        "st_id": "1149",
        "st_title": "–£—Ñ–∏–º—Å–∫–∏–π –∫–æ–ª–ª–µ–¥–∂ —Ä–∞–¥–∏–æ—ç–ª–µ–∫—Ç—Ä–æ–Ω–∏–∫–∏, —Ç–µ–ª–µ–∫–æ–º–º—É–Ω–∏–∫–∞—Ü–∏–π –∏ –±–µ–∑–æ–ø–∞—Å–Ω–æ—Å—Ç–∏",
        "st_title_en": "Ufimskiy kolledj radioelektroniki, telekommunikatsiy i bezopasnosti",
        "st_lat": "54.715679",
        "st_long": "56.002731",
		"direction": "–≤ —Å—Ç–æ—Ä. –¢–†–¶ \"–ü–ª–∞–Ω–µ—Ç–∞\""
    },
    {
        "st_id": "172",
        "st_title": "–¢–æ—Ä–≥–æ–≤—ã–π –∫–æ–º–ø–ª–µ–∫—Å \"–ö–∞—Ä–∞–∏–¥–µ–ª—å\"",
        "st_title_en": "Torgovyiy kompleks \"Karaidel\"",
        "st_lat": "54.711658",
        "st_long": "56.000427",
		"direction": "–≤ —Ü–µ–Ω—Ç—Ä"
    },
    {
        "st_id": "670",
        "st_title": "–¢–æ—Ä–≥–æ–≤—ã–π –∫–æ–º–ø–ª–µ–∫—Å \"–ö–∞—Ä–∞–∏–¥–µ–ª—å\"",
        "st_title_en": "Torgovyiy kompleks \"Karaidel\"",
        "st_lat": "54.712395",
        "st_long": "55.998552",
		"direction": "–∏–∑ —Ü–µ–Ω—Ç—Ä–∞"
    },
    {
        "st_id": [1114,626],
        "st_title": "–ò–Ω—Å—Ç–∏—Ç—É—Ç –ø—Ä–æ—Ñ–∑–∞–±–æ–ª–µ–≤–∞–Ω–∏–π",
        "st_title_en": "Institut profzabolevaniy",
        "st_lat": "54.707894",
        "st_long": "55.998993",
		"direction": "–≤ —Å—Ç–æ—Ä. —É–ª. –ü—É–≥–∞—á—ë–≤–∞"
    },
    {
        "st_id": "97",
        "st_title": "–ò–Ω—Å—Ç–∏—Ç—É—Ç –ø—Ä–æ—Ñ–∑–∞–±–æ–ª–µ–≤–∞–Ω–∏–π",
        "st_title_en": "Institut profzabolevaniy",
        "st_lat": "54.70791",
        "st_long": "55.99958",
		"direction": "–≤ —Å—Ç–æ—Ä. –ú–µ–Ω–¥–µ–ª–µ–µ–≤–∞"
    },
    {
        "st_id": "391",
        "st_title": "–ü—Ä–æ—Ñ–∏–ª–∞–∫—Ç–æ—Ä–∏–π \"–†–∞–¥—É–≥–∞\"",
        "st_title_en": "Profilaktoriy \"Raduga\"",
        "st_lat": "54.703911",
        "st_long": "56.011039",
		"direction": "–∫–æ–Ω–µ—á–Ω–∞—è"
    },
    {
        "st_id": "898",
        "st_title": "–†–æ–¥–¥–æ–º ‚Ññ4",
        "st_title_en": "Roddom ‚Ññ4",
        "st_lat": "54.707703",
        "st_long": "56.008015",
		"direction": "–≤ —Ü–µ–Ω—Ç—Ä"
    }
]