[
	{
		"st_id": "6",
		"st_title": "–£–ª. –ö–æ–º–∞—Ä–æ–≤–∞",
		"st_title_en": "Ul. Komarova",
		"st_lat": "54.811589",
		"st_long": "56.056459",
		"direction": "–∏–∑ —Ü–µ–Ω—Ç—Ä–∞"
	},
	{
		"st_id": "714",
		"st_title": "–£–ª. –ö–æ–º–∞—Ä–æ–≤–∞",
		"st_title_en": "Ul. Komarova",
		"st_lat": "54.813248",
		"st_long": "56.056648",
		"direction": "–≤ —Ü–µ–Ω—Ç—Ä"
	},
	{
		"st_id": "1014",
		"st_title": "–®–∫–æ–ª–∞ ‚Ññ109",
		"st_title_en": "SHkola ‚Ññ109",
		"st_lat": "54.811368",
		"st_long": "56.064218",
		"direction": "–≤ —Ü–µ–Ω—Ç—Ä"
	},
	{
		"st_id": "347",
		"st_title": "–®–∫–æ–ª–∞ ‚Ññ109",
		"st_title_en": "SHkola ‚Ññ109",
		"st_lat": "54.811225",
		"st_long": "56.06454",
		"direction": "–∏–∑ —Ü–µ–Ω—Ç—Ä–∞"
	},
	{
		"st_id": "804",
		"st_title": "–ë–æ–ª—å–Ω–∏—Ü–∞ ‚Ññ13",
		"st_title_en": "Bolnitsa ‚Ññ13",
		"st_lat": "54.81398",
		"st_long": "56.071524",
		"direction": "–≤ —Ü–µ–Ω—Ç—Ä"
    },
	{
		"st_id": "348",
		"st_title": "–ë–æ–ª—å–Ω–∏—Ü–∞ ‚Ññ13",
		"st_title_en": "Bolnitsa ‚Ññ13",
		"st_lat": "54.8139452",
		"st_long": "56.0718316",
		"direction": "–∏–∑ —Ü–µ–Ω—Ç—Ä–∞"
    },
	{
		"st_id": "56",
		"st_title": "–£—Ñ–∏–º—Å–∫–∏–π —Ç–æ–ø–ª–∏–≤–Ω–æ-—ç–Ω–µ—Ä–≥–µ—Ç–∏—á–µ—Å–∫–∏–π –∫–æ–ª–ª–µ–¥–∂",
		"st_title_en": "Ufimskiy toplivno-energeticheskiy kolledj",
		"st_lat": "54.81806",
		"st_long": "56.072057",
		"direction": "–∏–∑ —Ü–µ–Ω—Ç—Ä–∞"
    },
    {
		"st_id": "717",
		"st_title": "–£—Ñ–∏–º—Å–∫–∏–π —Ç–æ–ø–ª–∏–≤–Ω–æ-—ç–Ω–µ—Ä–≥–µ—Ç–∏—á–µ—Å–∫–∏–π –∫–æ–ª–ª–µ–¥–∂",
		"st_title_en": "Ufimskiy toplivno-energeticheskiy kolledj",
		"st_lat": "54.818188",
		"st_long": "56.073716",
		"direction": "–≤ —Ü–µ–Ω—Ç—Ä"
    },
	{
		"st_id": "5",
		"st_title": "–£—Ñ–∏–º—Å–∫–∏–π –≥–æ—Å—É–¥–∞—Ä—Å—Ç–≤–µ–Ω–Ω—ã–π –Ω–µ—Ñ—Ç—è–Ω–æ–π —Ç–µ—Ö–Ω–∏—á–µ—Å–∫–∏–π —É–Ω–∏–≤–µ—Ä—Å–∏—Ç–µ—Ç",
		"st_title_en": "Ufimskiy gosudarstvennyiy neftyanoy tehnicheskiy universitet",
		"st_lat": "54.817716",
		"st_long": "56.057364",
		"direction": "–≤ —Ü–µ–Ω—Ç—Ä"
	},
	{
		"st_id": "715",
		"st_title": "–£—Ñ–∏–º—Å–∫–∏–π –≥–æ—Å—É–¥–∞—Ä—Å—Ç–≤–µ–Ω–Ω—ã–π –Ω–µ—Ñ—Ç—è–Ω–æ–π —Ç–µ—Ö–Ω–∏—á–µ—Å–∫–∏–π —É–Ω–∏–≤–µ—Ä—Å–∏—Ç–µ—Ç",
		"st_title_en": "Ufimskiy gosudarstvennyiy neftyanoy tehnicheskiy universitet",
		"st_lat": "54.81626",
		"st_long": "56.058008",
		"direction": "–∏–∑ —Ü–µ–Ω—Ç—Ä–∞"
	},
	{
		"st_id": "1324",
		"st_title": "–£—Ñ–∏–º—Å–∫–∏–π –≥–æ—Å—É–¥–∞—Ä—Å—Ç–≤–µ–Ω–Ω—ã–π –Ω–µ—Ñ—Ç—è–Ω–æ–π —Ç–µ—Ö–Ω–∏—á–µ—Å–∫–∏–π —É–Ω–∏–≤–µ—Ä—Å–∏—Ç–µ—Ç (–£–ì–ù–¢–£) (üöé 4, 15)",
		"st_title_en": "Ufimskiy gosudarstvennyiy neftyanoy tehnicheskiy universitet (UGNTU)",
		"st_lat": "54.817706",
		"st_long": "56.059492",
		"direction": "–≤ —Å—Ç–æ—Ä. –ü–µ—Ä–≤–æ–º–∞–π—Å–∫–æ–π"
	},
	{
		"st_id": "4",
		"st_title": "–ü–∞—Ä–∫ –ü–æ–±–µ–¥—ã",
		"st_title_en": "Park Pobedyi",
		"st_lat": "54.822696",
		"st_long": "56.05922",
		"direction": "–≤ —Ü–µ–Ω—Ç—Ä"
	},
	{
		"st_id": "874",
		"st_title": "–ü–∞—Ä–∫ –ü–æ–±–µ–¥—ã",
		"st_title_en": "Park Pobedyi",
		"st_lat": "54.822616",
		"st_long": "56.059412",
		"direction": "–∏–∑ —Ü–µ–Ω—Ç—Ä–∞"
	},
	{
		"st_id": "719",
		"st_title": "–°—Ç–∞–¥–∏–æ–Ω \"–ù–µ—Ñ—Ç—è–Ω–∏–∫\"",
		"st_title_en": "Stadion \"Neftyanik\"",
		"st_lat": "54.824664",
		"st_long": "56.062264",
		"direction": "–∏–∑ —Ü–µ–Ω—Ç—Ä–∞"
	},
	{
		"st_id": "3",
		"st_title": "–°—Ç–∞–¥–∏–æ–Ω \"–ù–µ—Ñ—Ç—è–Ω–∏–∫\"",
		"st_title_en": "Stadion \"Neftyanik\"",
		"st_lat": "54.8249149",
		"st_long": "56.0626687",
		"direction": "–≤ —Ü–µ–Ω—Ç—Ä"
	},
	{
		"st_id": "2",
		"st_title": "–£–ª. –ö–µ–º–µ—Ä–æ–≤—Å–∫–∞—è",
		"st_title_en": "Ul. Kemerovskaya",
		"st_lat": "54.82628",
		"st_long": "56.064804",
		"direction": "–∏–∑ —Ü–µ–Ω—Ç—Ä–∞"
	},
	{
		"st_id": "48",
		"st_title": "–ü–ª–æ—â–∞–¥—å –∏–º. –°–µ—Ä–≥–æ –û—Ä–¥–∂–æ–Ω–∏–∫–∏–¥–∑–µ",
		"st_title_en": "Ploschad im. Sergo Ordjonikidze",
		"st_lat": "54.818684",
		"st_long": "56.067888",
		"direction": "–∏–∑ —Ü–µ–Ω—Ç—Ä–∞"
    },
    {
		"st_id": "718",
		"st_title": "–ü–ª–æ—â–∞–¥—å –∏–º. –°–µ—Ä–≥–æ –û—Ä–¥–∂–æ–Ω–∏–∫–∏–¥–∑–µ",
		"st_title_en": "Ploschad im. Sergo Ordjonikidze",
		"st_lat": "54.819087",
		"st_long": "56.070844",
		"direction": "–≤ —Ü–µ–Ω—Ç—Ä"
    },
	{
		"st_id": "51",
		"st_title": "üöã –£–ª. –ö–æ–Ω—Å—Ç–∏—Ç—É—Ü–∏–∏",
		"st_title_en": "üöã Ul. Konstitutsii",
		"st_lat": "54.822455",
		"st_long": "56.06644",
		"direction": "–≤ —Å—Ç–æ—Ä. –ì–î–ö"
	},
	{
		"st_id": "1213",
		"st_title": "üöã –£–ª. –ö–æ–Ω—Å—Ç–∏—Ç—É—Ü–∏–∏",
		"st_title_en": "üöã Ul. Konstitutsii",
		"st_lat": "54.822789",
		"st_long": "56.067084",
		"direction": "–≤ —Å—Ç–æ—Ä. –ò–Ω—Ç–µ—Ä–Ω–∞—Ü–∏–æ–Ω–∞–ª—å–Ω–æ–π"
	},
	{
		"st_id": "49",
		"st_title": "–£–ª. –ö–æ–Ω—Å—Ç–∏—Ç—É—Ü–∏–∏",
		"st_title_en": "Ul. Konstitutsii",
		"st_lat": "54.822044",
		"st_long": "56.06734",
		"direction": "–≤ —Ü–µ–Ω—Ç—Ä"
	},
    {
		"st_id": "1214",
		"st_title": "üöã –£–ª. –ú–∞–∫—Å–∏–º–∞ –ì–æ—Ä—å–∫–æ–≥–æ",
		"st_title_en": "üöã Ul. Maksima Gorkogo",
		"st_lat": "54.825095",
		"st_long": "56.070635",
		"direction": "–≤ —Å—Ç–æ—Ä. –ò–Ω—Ç–µ—Ä–Ω–∞—Ü–∏–æ–Ω–∞–ª—å–Ω–æ–π"
    },
    {
		"st_id": "213",
		"st_title": "üöã –£–ª. –ú–∞–∫—Å–∏–º–∞ –ì–æ—Ä—å–∫–æ–≥–æ",
		"st_title_en": "üöã Ul. Maksima Gorkogo",
		"st_lat": "54.825021",
		"st_long": "56.070845",
		"direction": "–≤ —Å—Ç–æ—Ä. –ì–î–ö"
    },
    {
		"st_id": "777",
		"st_title": "–û—Ä–¥–∂–æ–Ω–∏–∫–∏–¥–∑–µ–≤—Å–∫–æ–µ –†–£–í–î",
		"st_title_en": "Ordjonikidzevskoe RUVD",
		"st_lat": "54.82378",
		"st_long": "56.080568",
		"direction": "–≤ —Å—Ç–æ—Ä. –ü–µ—Ä–≤–æ–º–∞–π—Å–∫–æ–π"
    },
    {
		"st_id": "112",
		"st_title": "–û—Ä–¥–∂–æ–Ω–∏–∫–∏–¥–∑–µ–≤—Å–∫–æ–µ –†–£–í–î",
		"st_title_en": "Ordjonikidzevskoe RUVD",
		"st_lat": "54.8246",
		"st_long": "56.081576",
		"direction": "–≤ —Å—Ç–æ—Ä. –¢–≠–¶-1"
    },
    {
		"st_id": "1161",
		"st_title": "üöã –ö–æ–ª—Ö–æ–∑–Ω—ã–π —Ä—ã–Ω–æ–∫",
		"st_title_en": "üöã Kolhoznyiy ryinok",
		"st_lat": "54.823497",
		"st_long": "56.083086",
		"direction": "–≤ —Å—Ç–æ—Ä. –ì–î–ö"
    },
    {
		"st_id": "65",
		"st_title": "üöã –ö–æ–ª—Ö–æ–∑–Ω—ã–π —Ä—ã–Ω–æ–∫",
		"st_title_en": "üöã Kolhoznyiy ryinok",
		"st_lat": "54.823596",
		"st_long": "56.083193",
		"direction": "–≤ —Å—Ç–æ—Ä. –ò–Ω—Ç–µ—Ä–Ω–∞—Ü–∏–æ–Ω–∞–ª—å–Ω–æ–π"
    },
    {
		"st_id": "113",
		"st_title": "–£–ª. –í–æ–π–∫–æ–≤–∞",
		"st_title_en": "Ul. Voykova",
		"st_lat": "54.828836",
		"st_long": "56.086928",
		"direction": "–≤ —Å—Ç–æ—Ä. –¢–≠–¶-1"
    },
    {
		"st_id": "778",
		"st_title": "–£–ª. –í–æ–π–∫–æ–≤–∞",
		"st_title_en": "Ul. Voykova",
		"st_lat": "54.828864",
		"st_long": "56.086744",
		"direction": "–≤ —Å—Ç–æ—Ä. –ü–µ—Ä–≤–æ–º–∞–π—Å–∫–æ–π"
    },
    {
		"st_id": "114",
		"st_title": "–°—Ç–∞–Ω—Ü–∏—è \"–ë–µ–Ω–∑–∏–Ω\"",
		"st_title_en": "Stantsiya \"Benzin\"",
		"st_lat": "54.832884",
		"st_long": "56.089364",
		"direction": "–≤ —Å—Ç–æ—Ä. –¢–≠–¶-1"
    },
    {
		"st_id": "802",
		"st_title": "–°—Ç–∞–Ω—Ü–∏—è \"–ë–µ–Ω–∑–∏–Ω\"",
		"st_title_en": "Stantsiya \"Benzin\"",
		"st_lat": "54.833144",
		"st_long": "56.08922",
		"direction": "–≤ —Å—Ç–æ—Ä. –ü–µ—Ä–≤–æ–º–∞–π—Å–∫–æ–π"
    },
    {
		"st_id": "115",
		"st_title": "–¢–µ–ø–ª–æ—ç–Ω–µ—Ä–≥–æ—Ü–µ–Ω—Ç—Ä–∞–ª—å-1 (–¢–≠–¶-1)",
		"st_title_en": "Teploenergotsentral-1 (TETS-1)",
		"st_lat": "54.836432",
		"st_long": "56.089436",
		"direction": "–≤ —Å—Ç–æ—Ä. –ü–µ—Ä–≤–æ–º–∞–π—Å–∫–æ–π"
    },
    {
		"st_id": "902",
		"st_title": "–¢–µ–ø–ª–æ—ç–Ω–µ—Ä–≥–æ—Ü–µ–Ω—Ç—Ä–∞–ª—å-1 (–¢–≠–¶-1)",
		"st_title_en": "Teploenergotsentral-1 (TETS-1)",
		"st_lat": "54.836521",
		"st_long": "56.089672",
		"direction": "–∫–æ–Ω–µ—á–Ω–∞—è"
    },
    {
		"st_id": "727",
		"st_title": "–¢–æ—Ä–≥–æ–≤–æ-—Å–µ—Ä–≤–∏—Å–Ω—ã–π –∫–æ–º–ø–ª–µ–∫—Å  \"–°–µ–≤–µ—Ä–Ω—ã–π\"",
		"st_title_en": "Torgovo-servisnyiy kompleks  \"Severnyiy\"",
		"st_lat": "54.82904",
		"st_long": "56.0931",
		"direction": "–≤ —Å—Ç–æ—Ä. –•–∏–º–ø—Ä–æ–º"
    },
    {
		"st_id": "726",
		"st_title": "–¢–æ—Ä–≥–æ–≤–æ-—Å–µ—Ä–≤–∏—Å–Ω—ã–π –∫–æ–º–ø–ª–µ–∫—Å \"–°–µ–≤–µ—Ä–Ω—ã–π\"",
		"st_title_en": "Torgovo-servisnyiy kompleks \"Severnyiy\"",
		"st_lat": "54.8285",
		"st_long": "56.09312",
		"direction": "–≤ —Å—Ç–æ—Ä. —É–ª. –î–º–∏—Ç—Ä–∏—è –î–æ–Ω—Å–∫–æ–≥–æ"
    },
    {
		"st_id": "729",
		"st_title": "–ì–£–ü \"–ò–Ω—Å—Ç–∏—Ç—É—Ç –Ω–µ—Ñ—Ç–µ—Ö–∏–º–ø–µ—Ä–µ—Ä–∞–±–æ—Ç–∫–∏\" –†–ë (–ì–£–ü –ò–ù–•–ü –†–ë)",
		"st_title_en": "GUP \"Institut neftehimpererabotki\" RB (GUP INHP RB)",
		"st_lat": "54.833813",
		"st_long": "56.09549",
		"direction": "–≤ —Å—Ç–æ—Ä. –•–∏–º–ø—Ä–æ–º"
    },
    {
		"st_id": "728",
		"st_title": "–ì–£–ü \"–ò–Ω—Å—Ç–∏—Ç—É—Ç –Ω–µ—Ñ—Ç–µ—Ö–∏–º–ø–µ—Ä–µ—Ä–∞–±–æ—Ç–∫–∏\" –†–ë (–ì–£–ü –ò–ù–•–ü –†–ë)",
		"st_title_en": "GUP \"Institut neftehimpererabotki\" RB (GUP INHP RB)",
		"st_lat": "54.834009",
		"st_long": "56.095383",
		"direction": "–≤ —Å—Ç–æ—Ä. —É–ª. –î–º–∏—Ç—Ä–∏—è –î–æ–Ω—Å–∫–æ–≥–æ"
    },
    {
		"st_id": "270",
		"st_title": "–•–∏–º–ø—Ä–æ–º",
		"st_title_en": "Himprom",
		"st_lat": "54.835527",
		"st_long": "56.09636",
		"direction": "–∫–æ–Ω–µ—á–Ω–∞—è"
    },
	{
		"st_id": "1160",
		"st_title": "üöã –¢–æ—Ä–≥–æ–≤–æ-—Å–µ—Ä–≤–∏—Å–Ω—ã–π –∫–æ–º–ø–ª–µ–∫—Å \"–°–µ–≤–µ—Ä–Ω—ã–π\"",
		"st_title_en": "üöã Torgovo-servisnyiy kompleks \"Severnyiy\"",
		"st_lat": "54.825195",
		"st_long": "56.091892",
		"direction": "–≤ —Å—Ç–æ—Ä. –ì–î–ö"
    },
    {
		"st_id": "224",
		"st_title": "üöã –¢–æ—Ä–≥–æ–≤–æ-—Å–µ—Ä–≤–∏—Å–Ω—ã–π –∫–æ–º–ø–ª–µ–∫—Å \"–°–µ–≤–µ—Ä–Ω—ã–π\"",
		"st_title_en": "üöã Torgovo-servisnyiy kompleks \"Severnyiy\"",
		"st_lat": "54.82542",
		"st_long": "56.092458",
		"direction": "–≤ —Å—Ç–æ—Ä. –ò–Ω—Ç–µ—Ä–Ω–∞—Ü–∏–æ–Ω–∞–ª—å–Ω–æ–π"
    },
    {
		"st_id": "1158",
		"st_title": "üöã –£–ª. –°–µ–≤–∞—Å—Ç–æ–ø–æ–ª—å—Å–∫–∞—è",
		"st_title_en": "üöã Ul. Sevastopolskaya",
		"st_lat": "54.824152",
		"st_long": "56.09845",
		"direction": "–≤ —Å—Ç–æ—Ä. –ò–Ω—Ç–µ—Ä–Ω–∞—Ü–∏–æ–Ω–∞–ª—å–Ω–æ–π"
    },
    {
		"st_id": "225",
		"st_title": "–£–ª. –°–µ–≤–∞—Å—Ç–æ–ø–æ–ª—å—Å–∫–∞—è",
		"st_title_en": "Ul. Sevastopolskaya",
		"st_lat": "54.823853",
		"st_long": "56.098879",
		"direction": "–≤ —Å—Ç–æ—Ä. –ë–æ–ª—å–Ω–∏—Ü–∞ ‚Ññ17"
    },
    {
		"st_id": "725",
		"st_title": "–£–ª. –°–µ–≤–∞—Å—Ç–æ–ø–æ–ª—å—Å–∫–∞—è",
		"st_title_en": "Ul. Sevastopolskaya",
		"st_lat": "54.824044",
		"st_long": "56.099104",
		"direction": "–≤ —Å—Ç–æ—Ä. –¢–°–ö \"–°–µ–≤–µ—Ä–Ω—ã–π\""
    },
    {
		"st_id": "1159",
		"st_title": "üöã –£–ª. –°–µ–≤–∞—Å—Ç–æ–ø–æ–ª—å—Å–∫–∞—è",
		"st_title_en": "üöã Ul. Sevastopolskaya",
		"st_lat": "54.8235791",
		"st_long": "56.1001804",
		"direction": "–≤ —Å—Ç–æ—Ä. –ì–î–ö"
    },
    {
		"st_id": "724",
		"st_title": "–£–ª. –î–º–∏—Ç—Ä–∏—è –î–æ–Ω—Å–∫–æ–≥–æ",
		"st_title_en": "Ul. Dmitriya Donskogo",
		"st_lat": "54.822375",
		"st_long": "56.103879",
		"direction": "–≤ —Å—Ç–æ—Ä. –ë–æ–ª—å–Ω–∏—Ü–∞ ‚Ññ17"
    },
    {
		"st_id": "1157",
		"st_title": "üöã –£–ª. –î–º–∏—Ç—Ä–∏—è –î–æ–Ω—Å–∫–æ–≥–æ",
		"st_title_en": "üöã Ul. Dmitriya Donskogo",
		"st_lat": "54.822461",
		"st_long": "56.104013",
		"direction": "–≤ —Å—Ç–æ—Ä. –ì–î–ö"
    },
    {
		"st_id": "226",
		"st_title": "–£–ª. –î–º–∏—Ç—Ä–∏—è –î–æ–Ω—Å–∫–æ–≥–æ",
		"st_title_en": "Ul. Dmitriya Donskogo",
		"st_lat": "54.822542",
		"st_long": "56.104345",
		"direction": "–≤ —Å—Ç–æ—Ä. –¢–°–ö \"–°–µ–≤–µ—Ä–Ω—ã–π\""
    },
    {
		"st_id": "1156",
		"st_title": "üöã –£–ª. –î–º–∏—Ç—Ä–∏—è –î–æ–Ω—Å–∫–æ–≥–æ",
		"st_title_en": "üöã Ul. Dmitriya Donskogo",
		"st_lat": "54.822339",
		"st_long": "56.104763",
		"direction": "–≤ —Å—Ç–æ—Ä. –ò–Ω—Ç–µ—Ä–Ω–∞—Ü–∏–æ–Ω–∞–ª—å–Ω–æ–π"
    },
    {
		"st_id": "227",
		"st_title": "–ë–æ–ª—å–Ω–∏—Ü–∞ ‚Ññ17",
		"st_title_en": "Bolnitsa ‚Ññ17",
		"st_lat": "54.8198232",
		"st_long": "56.1085556",
		"direction": "–∏–∑ —Ü–µ–Ω—Ç—Ä–∞"
    },
    {
		"st_id": "723",
		"st_title": "–ë–æ–ª—å–Ω–∏—Ü–∞ ‚Ññ17",
		"st_title_en": "Bolnitsa ‚Ññ17",
		"st_lat": "54.8205223",
		"st_long": "56.1087846",
		"direction": "–≤ —Ü–µ–Ω—Ç—Ä"
    },
    {
		"st_id": "1155",
		"st_title": "üöã –ë–æ–ª—å–Ω–∏—Ü–∞ ‚Ññ17",
		"st_title_en": "üöã Bolnitsa ‚Ññ17",
		"st_lat": "54.821082",
		"st_long": "56.108841",
		"direction": "–≤ —Å—Ç–æ—Ä. –ì–î–ö"
    },
    {
		"st_id": "1154",
		"st_title": "üöã –ë–æ–ª—å–Ω–∏—Ü–∞ ‚Ññ17",
		"st_title_en": "üöã Bolnitsa ‚Ññ17",
		"st_lat": "54.820869",
		"st_long": "56.109887",
		"direction": "–≤ —Å—Ç–æ—Ä. –ò–Ω—Ç–µ—Ä–Ω–∞—Ü–∏–æ–Ω–∞–ª—å–Ω–æ–π"
    },
    {
		"st_id": "276",
		"st_title": "–£–ª. –í–æ–ª–æ–≥–æ–¥—Å–∫–∞—è",
		"st_title_en": "Ul. Vologodskaya",
		"st_lat": "54.823523",
		"st_long": "56.111683",
		"direction": "–∏–∑ —Ü–µ–Ω—Ç—Ä–∞"
    },
    {
		"st_id": "798",
		"st_title": "–£–ª. –í–æ–ª–æ–≥–æ–¥—Å–∫–∞—è",
		"st_title_en": "Ul. Vologodskaya",
		"st_lat": "54.824075",
		"st_long": "56.11185",
		"direction": "–≤ —Ü–µ–Ω—Ç—Ä"
    },
    {
		"st_id": "799",
		"st_title": "–•–ª–µ–±–æ–∑–∞–≤–æ–¥ ‚Ññ8",
		"st_title_en": "Hlebozavod ‚Ññ8",
		"st_lat": "54.826785",
		"st_long": "56.114135",
		"direction": "–≤ —Ü–µ–Ω—Ç—Ä"
    },
    {
		"st_id": "275",
		"st_title": "–•–ª–µ–±–æ–∑–∞–≤–æ–¥ ‚Ññ8",
		"st_title_en": "Hlebozavod ‚Ññ8",
		"st_lat": "54.826822",
		"st_long": "56.114503",
		"direction": "–∏–∑ —Ü–µ–Ω—Ç—Ä–∞"
    },
    {
		"st_id": "273",
		"st_title": "–ê—Å—Ñ–∞–ª—å—Ç–æ–±–µ—Ç–æ–Ω–Ω—ã–π –∑–∞–≤–æ–¥ (–ê–ë–ó)",
		"st_title_en": "Asfaltobetonnyiy zavod (ABZ)",
		"st_lat": "54.8329987",
		"st_long": "56.1176047",
		"direction": "–∫–æ–Ω–µ—á–Ω–∞—è"
    },
    {
		"st_id": "986",
		"st_title": "–ñ–µ–ª–µ–∑–Ω–æ–¥–æ—Ä–æ–∂–Ω—ã–π –ø–µ—Ä–µ–µ–∑–¥ –¢–∏–º–∞—à–µ–≤—Å–∫–∏–π",
		"st_title_en": "Jeleznodorojnyiy pereezd Timashevskiy",
		"st_lat": "54.8281510",
		"st_long": "56.1195186",
		"direction": "–∏–∑ —Ü–µ–Ω—Ç—Ä–∞"
    },
    {
		"st_id": "341",
		"st_title": "–ñ–µ–ª–µ–∑–Ω–æ–¥–æ—Ä–æ–∂–Ω—ã–π –ø–µ—Ä–µ–µ–∑–¥ –¢–∏–º–∞—à–µ–≤—Å–∫–∏–π",
		"st_title_en": "Jeleznodorojnyiy pereezd Timashevskiy",
		"st_lat": "54.828158",
		"st_long": "56.117786",
		"direction": "–≤ —Ü–µ–Ω—Ç—Ä"
    },
	{
		"st_id": "1153",
		"st_title": "üöã –£–ª. –ö—Ä–µ–º–ª–µ–≤—Å–∫–∞—è",
		"st_title_en": "üöã Ul. Kremlevskaya",
		"st_lat": "54.8194482",
		"st_long": "56.1145604",
		"direction": "–≤ —Å—Ç–æ—Ä. –ì–î–ö"
    },
    {
		"st_id": "228",
		"st_title": "üöã –£–ª. –ö—Ä–µ–º–ª–µ–≤—Å–∫–∞—è",
		"st_title_en": "üöã Ul. Kremlevskaya",
		"st_lat": "54.8192479",
		"st_long": "56.1154036",
		"direction": "–≤ —Å—Ç–æ—Ä. –ò–Ω—Ç–µ—Ä–Ω–∞—Ü–∏–æ–Ω–∞–ª—å–Ω–æ–π"
    },
    {
		"st_id": "277",
		"st_title": "–¢–æ—Ä–≥–æ–≤—ã–π –∫–æ–º–ø–ª–µ–∫—Å \"–õ–æ–ø–∞—Ç–∏–Ω–æ\"",
		"st_title_en": "Torgovyiy kompleks \"Lopatino\"",
		"st_lat": "54.820172",
		"st_long": "56.12",
		"direction": "–∏–∑ —Ü–µ–Ω—Ç—Ä–∞"
    },
    {
		"st_id": "797",
		"st_title": "–¢–æ—Ä–≥–æ–≤—ã–π –∫–æ–º–ø–ª–µ–∫—Å \"–õ–æ–ø–∞—Ç–∏–Ω–æ\"",
		"st_title_en": "Torgovyiy kompleks \"Lopatino\"",
		"st_lat": "54.820332",
		"st_long": "56.120327",
		"direction": "–≤ —Ü–µ–Ω—Ç—Ä"
    },
    {
		"st_id": "796",
		"st_title": "–£–ª. –¢—É—Ä–≥–µ–Ω–µ–≤–∞",
		"st_title_en": "Ul. Turgeneva",
		"st_lat": "54.81958",
		"st_long": "56.122057",
		"direction": "–∏–∑ —Ü–µ–Ω—Ç—Ä–∞"
    },
    {
		"st_id": "278",
		"st_title": "–£–ª. –¢—É—Ä–≥–µ–Ω–µ–≤–∞",
		"st_title_en": "Ul. Turgeneva",
		"st_lat": "54.819631",
		"st_long": "56.122368",
		"direction": "–≤ —Ü–µ–Ω—Ç—Ä"
    },
    {
		"st_id": "229",
		"st_title": "üöã –£—Ñ–∞ - –ê–í–¢–û–í–ê–ó",
		"st_title_en": "üöã Ufa - AVTOVAZ",
		"st_lat": "54.816614",
		"st_long": "56.124403",
		"direction": "–≤ —Å—Ç–æ—Ä. –ì–î–ö"
    },
    {
		"st_id": [795,583],
		"st_title": "–£—Ñ–∞ - –ê–í–¢–û–í–ê–ó",
		"st_title_en": "Ufa - AVTOVAZ",
		"st_lat": "54.816882",
		"st_long": "56.125097",
		"direction": "–∫–æ–Ω–µ—á–Ω–∞—è"
    },
    {
		"st_id": "1152",
		"st_title": "üöã –£—Ñ–∞ - –ê–í–¢–û–í–ê–ó",
		"st_title_en": "üöã Ufa - AVTOVAZ",
		"st_lat": "54.816999",
		"st_long": "56.123494",
		"direction": "–≤ —Å—Ç–æ—Ä. –ò–Ω—Ç–µ—Ä–Ω–∞—Ü–∏–æ–Ω–∞–ª—å–Ω–æ–π"
    },
    {
		"st_id": "54",
		"st_title": "–£–ª. –ö–æ—Å–º–æ–Ω–∞–≤—Ç–æ–≤",
		"st_title_en": "Ul. Kosmonavtov",
		"st_lat": "54.818204",
		"st_long": "56.063124",
		"direction": "–∏–∑ —Ü–µ–Ω—Ç—Ä–∞"
    },
    {
		"st_id": "1212",
		"st_title": "üöã –£–ª. –ö–æ—Å–º–æ–Ω–∞–≤—Ç–æ–≤",
		"st_title_en": "üöã Ul. Kosmonavtov",
		"st_lat": "54.8180499",
		"st_long": "56.0637204",
		"direction": "–≤ —Å—Ç–æ—Ä. –ì–î–ö"
    },
    {
		"st_id": "1211",
		"st_title": "üöã –£–ª. –ö–æ—Å–º–æ–Ω–∞–≤—Ç–æ–≤",
		"st_title_en": "üöã Ul. Kosmonavtov",
		"st_lat": "54.816961",
		"st_long": "56.064376",
		"direction": "–≤ —Å—Ç–æ—Ä. –ò–Ω—Ç–µ—Ä–Ω–∞—Ü–∏–æ–Ω–∞–ª—å–Ω–æ–π"
    },
	{
      "st_id": "212",
      "st_title": "üöã –†–µ—Å–ø—É–±–ª–∏–∫–∞–Ω—Å–∫–∏–π —ç–∫–æ–Ω–æ–º–∏—á–µ—Å–∫–∏–π –ª–∏—Ü–µ–π",
      "st_title_en": "üöã Respublikanskiy ekonomicheskiy litsey",
      "st_lat": "54.815588",
      "st_long": "56.069498",
		"direction": "–≤ —Å—Ç–æ—Ä. –ì–î–ö"
    },
    {
      "st_id": "211",
      "st_title": "üöã –£–ª. –£–ª—å—è–Ω–æ–≤—ã—Ö",
      "st_title_en": "üöã Ul. Ulyanovyih",
      "st_lat": "54.81488",
      "st_long": "56.071606",
		"direction": "–≤ —Å—Ç–æ—Ä. –ò–Ω—Ç–µ—Ä–Ω–∞—Ü–∏–æ–Ω–∞–ª—å–Ω–æ–π"
    },
	{
		"st_id": "1210",
		"st_title": "üöã –ë–æ–ª—å–Ω–∏—Ü–∞ ‚Ññ13",
		"st_title_en": "üöã Bolnitsa ‚Ññ13",
		"st_lat": "54.814651",
		"st_long": "56.072738",
		"direction": "–≤ —Å—Ç–æ—Ä. –ì–î–ö"
    },
    {
		"st_id": "210",
		"st_title": "üöã –ë–æ–ª—å–Ω–∏—Ü–∞ ‚Ññ13",
		"st_title_en": "üöã Bolnitsa ‚Ññ13",
		"st_lat": "54.813976",
		"st_long": "56.074761",
		"direction": "–≤ —Å—Ç–æ—Ä. –ò–Ω—Ç–µ—Ä–Ω–∞—Ü–∏–æ–Ω–∞–ª—å–Ω–æ–π"
    },
	{
		"st_id": "209",
		"st_title": "üöã –£–ª. –ú–∞—è–∫–æ–≤—Å–∫–æ–≥–æ",
		"st_title_en": "üöã Ul. Mayakovskogo",
		"st_lat": "54.814475",
		"st_long": "56.07799",
		"direction": "–≤ —Å—Ç–æ—Ä. –ì–î–ö"
    },
    {
		"st_id": "1291",
		"st_title": "üöã –£–ª. –ú–∞—è–∫–æ–≤—Å–∫–æ–≥–æ",
		"st_title_en": "üöã Ul. Mayakovskogo",
		"st_lat": "54.814645",
		"st_long": "56.078365",
		"direction": "–≤ —Å—Ç–æ—Ä. –ò–Ω—Ç–µ—Ä–Ω–∞—Ü–∏–æ–Ω–∞–ª—å–Ω–æ–π"
    },
    {
		"st_id": "1209",
		"st_title": "üöã –ö–∏–Ω–æ—Ç–µ–∞—Ç—Ä \"–ü–æ–±–µ–¥–∞\"",
		"st_title_en": "üöã Kinoteatr \"Pobeda\"",
		"st_lat": "54.81359",
		"st_long": "56.082721",
		"direction": "–≤ —Å—Ç–æ—Ä. –ò–Ω—Ç–µ—Ä–Ω–∞—Ü–∏–æ–Ω–∞–ª—å–Ω–æ–π"
    },
	{
		"st_id": "208",
		"st_title": "üöã –ö–∏–Ω–æ—Ç–µ–∞—Ç—Ä \"–ü–æ–±–µ–¥–∞\"",
		"st_title_en": "üöã Kinoteatr \"Pobeda\"",
		"st_lat": "54.813717",
		"st_long": "56.082898",
		"direction": "–≤ —Å—Ç–æ—Ä. –ì–î–ö"
    },
    {
		"st_id": "1208",
		"st_title": "üöã –£–ª. –®—É–º–∞–≤—Ü–æ–≤–∞",
		"st_title_en": "üöã Ul. SHumavtsova",
		"st_lat": "54.812273",
		"st_long": "56.087496",
		"direction": "–≤ —Å—Ç–æ—Ä. –ò–Ω—Ç–µ—Ä–Ω–∞—Ü–∏–æ–Ω–∞–ª—å–Ω–æ–π"
    },
    {
		"st_id": "204",
		"st_title": "üöã –£–ª. –ò–Ω—Ç–µ—Ä–Ω–∞—Ü–∏–æ–Ω–∞–ª—å–Ω–∞—è",
		"st_title_en": "üöã Ul. Internatsionalnaya",
		"st_lat": "54.809715",
		"st_long": "56.087799",
		"direction": "–∫–æ–Ω–µ—á–Ω–∞—è"
    },
    {
		"st_id": "206",
		"st_title": "üöã –£–ª. –®—É–º–∞–≤—Ü–æ–≤–∞",
		"st_title_en": "üöã Ul. SHumavtsova",
		"st_lat": "54.812285",
		"st_long": "56.08785",
		"direction": "–≤ —Å—Ç–æ—Ä. –ì–î–ö"
    },
    {
		"st_id": "1293",
		"st_title": "üöã –£–ª. –ò–Ω—Ç–µ—Ä–Ω–∞—Ü–∏–æ–Ω–∞–ª—å–Ω–∞—è",
		"st_title_en": "üöã Ul. Internatsionalnaya",
		"st_lat": "54.810382",
		"st_long": "56.088025",
		"direction": "–≤ —Å—Ç–æ—Ä. –ì–î–ö"
    },
    {
		"st_id": "8582",
		"st_title": "–ì–æ—Ä–æ–¥—Å–∫–æ–π –∫—É–ª—å—Ç—É—Ä–Ω–æ-–¥–æ—Å—É–≥–æ–≤—ã–π —Ü–µ–Ω—Ç—Ä",
		"st_title_en": "Gorodskoy kulturno-dosugovyiy tsentr",
		"st_lat": "54.812622",
		"st_long": "56.088853",
		"direction": "–≤ —Å—Ç–æ—Ä. –°–∏–ø–∞–π–ª–æ–≤–æ"
    },
    {
		"st_id": "46",
		"st_title": "–î–µ—Ç—Å–∫–∞—è –±–∏–±–ª–∏–æ—Ç–µ–∫–∞",
		"st_title_en": "Detskaya biblioteka",
		"st_lat": "54.817164",
		"st_long": "56.075688",
		"direction": "–∏–∑ —Ü–µ–Ω—Ç—Ä–∞"
    },
    {
		"st_id": "716",
		"st_title": "–î–µ—Ç—Å–∫–∞—è –±–∏–±–ª–∏–æ—Ç–µ–∫–∞",
		"st_title_en": "Detskaya biblioteka",
		"st_lat": "54.817412",
		"st_long": "56.076191",
		"direction": "–≤ —Ü–µ–Ω—Ç—Ä"
    },
    {
		"st_id": "43",
		"st_title": "–ö–∏–Ω–æ—Ç–µ–∞—Ç—Ä \"–ü–æ–±–µ–¥–∞\"",
		"st_title_en": "Kinoteatr \"Pobeda\"",
		"st_lat": "54.8150421",
		"st_long": "56.0831727",
		"direction": "–∏–∑ —Ü–µ–Ω—Ç—Ä–∞"
    },
    {
		"st_id": "720",
		"st_title": "–ö–∏–Ω–æ—Ç–µ–∞—Ç—Ä \"–ü–æ–±–µ–¥–∞\"",
		"st_title_en": "Kinoteatr \"Pobeda\"",
		"st_lat": "54.8153040",
		"st_long": "56.0833142",
		"direction": "–≤ —Ü–µ–Ω—Ç—Ä"
    },
    {
		"st_id": "1244",
		"st_title": "–ë–æ–ª—å–Ω–∏—Ü–∞ ‚Ññ10",
		"st_title_en": "Bolnitsa ‚Ññ10",
		"st_lat": "54.822946",
		"st_long": "56.072716",
		"direction": "–≤ —Å—Ç–æ—Ä. –°–µ–≤–µ—Ä–Ω—ã–π –ê–í"
    },
    {
		"st_id": "1243",
		"st_title": "–ë–æ–ª—å–Ω–∏—Ü–∞ ‚Ññ10",
		"st_title_en": "Bolnitsa ‚Ññ10",
		"st_lat": "54.822803",
		"st_long": "56.073439",
		"direction": "–≤ —Å—Ç–æ—Ä. –ö–æ–ª—Ö–æ–∑–Ω—ã–π —Ä—ã–Ω–æ–∫"
    },
    {
		"st_id": "808",
		"st_title": "–î–µ—Ç—Å–∫–∏–π —Å–∞–¥ ‚Ññ80",
		"st_title_en": "Detskiy sad ‚Ññ80",
		"st_lat": "54.8211066",
		"st_long": "56.0777636",
		"direction": "–≤ —Ü–µ–Ω—Ç—Ä"
    },
    {
		"st_id": "62",
		"st_title": "–î–µ—Ç—Å–∫–∏–π —Å–∞–¥ ‚Ññ80",
		"st_title_en": "Detskiy sad ‚Ññ80",
		"st_lat": "54.82162",
		"st_long": "56.078564",
		"direction": "–∏–∑ —Ü–µ–Ω—Ç—Ä–∞"
    },
    {
		"st_id": "63",
		"st_title": "–ö–æ–ª—Ö–æ–∑–Ω—ã–π —Ä—ã–Ω–æ–∫",
		"st_title_en": "Kolhoznyiy ryinok",
		"st_lat": "54.821328",
		"st_long": "56.082088",
		"direction": "–≤ —Ü–µ–Ω—Ç—Ä"
    },
    {
		"st_id": "776",
		"st_title": "–ö–æ–ª—Ö–æ–∑–Ω—ã–π —Ä—ã–Ω–æ–∫",
		"st_title_en": "Kolhoznyiy ryinok",
		"st_lat": "54.8213356",
		"st_long": "56.0847936",
		"direction": "–∏–∑ —Ü–µ–Ω—Ç—Ä–∞"
    },
    {
		"st_id": "1354",
		"st_title": "–ö–æ–ª—Ö–æ–∑–Ω—ã–π —Ä—ã–Ω–æ–∫ –æ–∫. –¢–†–¶ –ú–µ—Ä–∫—É—Ä–∏–π",
		"st_title_en": "Kolhoznyiy ryinok ok. TRTS Merkurij",
		"st_lat": "54.8218236",
		"st_long": "56.0854706",
		"direction": "–≤ —Ü–µ–Ω—Ç—Ä"
    },
    {
		"st_id": "1161",
		"st_title": "üöã –ö–æ–ª—Ö–æ–∑–Ω—ã–π —Ä—ã–Ω–æ–∫",
		"st_title_en": "üöã Kolhoznyiy ryinok",
		"st_lat": "54.823497",
		"st_long": "56.083086",
		"direction": "–≤ —Å—Ç–æ—Ä. –ì–î–ö"
    },
    {
		"st_id": "65",
		"st_title": "üöã –ö–æ–ª—Ö–æ–∑–Ω—ã–π —Ä—ã–Ω–æ–∫",
		"st_title_en": "üöã Kolhoznyiy ryinok",
		"st_lat": "54.823596",
		"st_long": "56.083193",
		"direction": "–≤ —Å—Ç–æ—Ä. –ò–Ω—Ç–µ—Ä–Ω–∞—Ü–∏–æ–Ω–∞–ª—å–Ω–æ–π"
    },
	{
		"st_id": "42",
		"st_title": "–ì–æ—Ä–æ–¥—Å–∫–æ–π –∫—É–ª—å—Ç—É—Ä–Ω–æ-–¥–æ—Å—É–≥–æ–≤—ã–π —Ü–µ–Ω—Ç—Ä",
		"st_title_en": "Gorodskoy kulturno-dosugovyiy tsentr",
		"st_lat": "54.813527",
		"st_long": "56.088423",
		"direction": "–∏–∑ —Ü–µ–Ω—Ç—Ä–∞"
    },
    {
		"st_id": "730",
		"st_title": "–ì–æ—Ä–æ–¥—Å–∫–æ–π –∫—É–ª—å—Ç—É—Ä–Ω–æ-–¥–æ—Å—É–≥–æ–≤—ã–π —Ü–µ–Ω—Ç—Ä",
		"st_title_en": "Gorodskoy kulturno-dosugovyiy tsentr",
		"st_lat": "54.813765",
		"st_long": "56.088763",
		"direction": "–≤ —Ü–µ–Ω—Ç—Ä"
    },
	{
		"st_id": "41",
		"st_title": "–£–Ω–∏–≤–µ—Ä–º–∞–≥ \"–ü–µ—Ä–≤–æ–º–∞–π—Å–∫–∏–π\"",
		"st_title_en": "Univermag \"Pervomayskiy\"",
		"st_lat": "54.812392",
		"st_long": "56.092482",
		"direction": "–∏–∑ —Ü–µ–Ω—Ç—Ä–∞"
    },
    {
		"st_id": "721",
		"st_title": "–£–Ω–∏–≤–µ—Ä–º–∞–≥ \"–ü–µ—Ä–≤–æ–º–∞–π—Å–∫–∏–π\"",
		"st_title_en": "Univermag \"Pervomayskiy\"",
		"st_lat": "54.812465",
		"st_long": "56.093338",
		"direction": "–≤ —Ü–µ–Ω—Ç—Ä"
    },
    {
		"st_id": "39",
		"st_title": "–£–ª. –°–≤–æ–±–æ–¥—ã",
		"st_title_en": "Ul. Svobodyi",
		"st_lat": "54.8104509",
		"st_long": "56.0993927",
		"direction": "–∏–∑ —Ü–µ–Ω—Ç—Ä–∞"
    },
    {
		"st_id": "790",
		"st_title": "–£–ª. –°–≤–æ–±–æ–¥—ã",
		"st_title_en": "Ul. Svobodyi",
		"st_lat": "54.810123",
		"st_long": "56.101323",
		"direction": "–≤ —Ü–µ–Ω—Ç—Ä"
    },
    {
		"st_id": "791",
		"st_title": "–£–ª. –ö—Ä–µ–º–ª–µ–≤—Å–∫–∞—è",
		"st_title_en": "Ul. Kremlevskaya",
		"st_lat": "54.80862",
		"st_long": "56.10685",
		"direction": "–≤ —Ü–µ–Ω—Ç—Ä"
    },
    {
		"st_id": "38",
		"st_title": "–£–ª. –ö—Ä–µ–º–ª–µ–≤—Å–∫–∞—è",
		"st_title_en": "Ul. Kremlevskaya",
		"st_lat": "54.80884",
		"st_long": "56.105078",
		"direction": "–∏–∑ —Ü–µ–Ω—Ç—Ä–∞"
    },
    {
		"st_id": "489",
		"st_title": "–û–ê–û \"–£—Ñ–∞–º–æ–ª–∞–≥—Ä–æ–ø—Ä–æ–º\"",
		"st_title_en": "OAO \"Ufamolagroprom\"",
		"st_lat": "54.805372",
		"st_long": "56.105442",
		"direction": "–∏–∑ —Ü–µ–Ω—Ç—Ä–∞"
    },
    {
		"st_id": "1095",
		"st_title": "–û–ê–û \"–£—Ñ–∞–º–æ–ª–∞–≥—Ä–æ–ø—Ä–æ–º\"",
		"st_title_en": "OAO \"Ufamolagroprom\"",
		"st_lat": "54.805462",
		"st_long": "56.10592",
		"direction": "–≤ —Ü–µ–Ω—Ç—Ä"
    },
	{
		"st_id": "67",
		"st_title": "–†–µ—Å–ø—É–±–ª–∏–∫–∞–Ω—Å–∫–∏–π –ë–∞—à–∫–∏—Ä—Å–∫–æ-–¢—É—Ä–µ—Ü–∫–∏–π –ª–∏—Ü–µ–π",
		"st_title_en": "Respublikanskiy Bashkirsko-Turetskiy litsey",
		"st_lat": "54.8224700",
		"st_long": "56.0911991",
		"direction": "–∏–∑ —Ü–µ–Ω—Ç—Ä–∞"
    },
    {
		"st_id": "775",
		"st_title": "–†–µ—Å–ø—É–±–ª–∏–∫–∞–Ω—Å–∫–∏–π –ë–∞—à–∫–∏—Ä—Å–∫–æ-–¢—É—Ä–µ—Ü–∫–∏–π –ª–∏—Ü–µ–π",
		"st_title_en": "Respublikanskiy Bashkirsko-Turetskiy litsey",
		"st_lat": "54.8221332",
		"st_long": "56.0911050",
		"direction": "–∏–∑ —Ü–µ–Ω—Ç—Ä–∞"
    },
    {
		"st_id": "69",
		"st_title": "–î–µ—Ç—Å–∫–∏–π –¥–æ–º ‚Ññ9",
		"st_title_en": "Detskiy dom ‚Ññ9",
		"st_lat": "54.8218283",
		"st_long": "56.0955524",
		"direction": "–≤ —Ü–µ–Ω—Ç—Ä"
    },
    {
		"st_id": "774",
		"st_title": "–î–µ—Ç—Å–∫–∏–π –¥–æ–º ‚Ññ9",
		"st_title_en": "Detskiy dom ‚Ññ9",
		"st_lat": "54.8214231",
		"st_long": "56.0957070",
		"direction": "–∏–∑ —Ü–µ–Ω—Ç—Ä–∞"
    },
    {
		"st_id": "773",
		"st_title": "–£–ª. –ê–ª–µ–∫—Å–∞–Ω–¥—Ä–∞ –ù–µ–≤—Å–∫–æ–≥–æ",
		"st_title_en": "Ul. Aleksandra Nevskogo",
		"st_lat": "54.818155",
		"st_long": "56.101452",
		"direction": "–∏–∑ —Ü–µ–Ω—Ç—Ä–∞"
    },
    {
		"st_id": "71",
		"st_title": "–£–ª. –ê–ª–µ–∫—Å–∞–Ω–¥—Ä–∞ –ù–µ–≤—Å–∫–æ–≥–æ",
		"st_title_en": "Ul. Aleksandra Nevskogo",
		"st_lat": "54.818477",
		"st_long": "56.1018",
		"direction": "–≤ —Ü–µ–Ω—Ç—Ä"
    },
    {
		"st_id": "72",
		"st_title": "–£–ª. –ò–≤–∞–Ω–∞ –§—Ä–∞–Ω–∫–æ",
		"st_title_en": "Ul. Ivana Franko",
		"st_lat": "54.8140957",
		"st_long": "56.1069198",
		"direction": "–≤ —Ü–µ–Ω—Ç—Ä"
    },
    {
		"st_id": "772",
		"st_title": "–£–ª. –ò–≤–∞–Ω–∞ –§—Ä–∞–Ω–∫–æ",
		"st_title_en": "Ul. Ivana Franko",
		"st_lat": "54.8135296",
		"st_long": "56.1076799",
		"direction": "–∏–∑ —Ü–µ–Ω—Ç—Ä–∞"
    },
    {
		"st_id": "771",
		"st_title": "–£–ª. –ö–æ–º–º—É–Ω–∞—Ä–æ–≤",
		"st_title_en": "Ul. Kommunarov",
		"st_lat": "54.8125820",
		"st_long": "56.1124803",
		"direction": "–≤ —Ü–µ–Ω—Ç—Ä"
    },
    {
		"st_id": "74",
		"st_title": "–£–ª. –ö–æ–º–º—É–Ω–∞—Ä–æ–≤",
		"st_title_en": "Ul. Kommunarov",
		"st_lat": "54.8118950",
		"st_long": "56.1133120",
		"direction": "–∏–∑ —Ü–µ–Ω—Ç—Ä–∞"
    },
    {
		"st_id": "805",
		"st_title": "–î–≤–æ—Ä–µ—Ü –∫—É–ª—å—Ç—É—Ä—ã –£—Ñ–∏–º—Å–∫–æ–≥–æ –º–æ—Ç–æ—Ä–æ—Å—Ç—Ä–æ–∏—Ç–µ–ª—å–Ω–æ–≥–æ –ø—Ä–æ–∏–∑–≤–æ–¥—Å—Ç–≤–µ–Ω–Ω–æ–≥–æ –æ–±—ä–µ–¥–∏–Ω–µ–Ω–∏—è (–î–ö –£–ú–ü–û)",
		"st_title_en": "Dvorets kulturyi Ufimskogo motorostroitelnogo proizvodstvennogo obyedineniya (DK UMPO)",
		"st_lat": "54.806191",
		"st_long": "56.112843",
		"direction": "–∏–∑ —Ü–µ–Ω—Ç—Ä–∞"
    },
    {
		"st_id": "36",
		"st_title": "–î–≤–æ—Ä–µ—Ü –∫—É–ª—å—Ç—É—Ä—ã –£—Ñ–∏–º—Å–∫–æ–≥–æ –º–æ—Ç–æ—Ä–æ—Å—Ç—Ä–æ–∏—Ç–µ–ª—å–Ω–æ–≥–æ –ø—Ä–æ–∏–∑–≤–æ–¥—Å—Ç–≤–µ–Ω–Ω–æ–≥–æ –æ–±—ä–µ–¥–∏–Ω–µ–Ω–∏—è (–î–ö –£–ú–ü–û)",
		"st_title_en": "Dvorets kulturyi Ufimskogo motorostroitelnogo proizvodstvennogo obyedineniya (DK UMPO)",
		"st_lat": "54.806798",
		"st_long": "56.112943",
		"direction": "–≤ —Ü–µ–Ω—Ç—Ä"
    },
    {
		"st_id": "792",
		"st_title": "–î–≤–æ—Ä–µ—Ü –∫—É–ª—å—Ç—É—Ä—ã –£—Ñ–∏–º—Å–∫–æ–≥–æ –º–æ—Ç–æ—Ä–æ—Å—Ç—Ä–æ–∏—Ç–µ–ª—å–Ω–æ–≥–æ –ø—Ä–æ–∏–∑–≤–æ–¥—Å—Ç–≤–µ–Ω–Ω–æ–≥–æ –æ–±—ä–µ–¥–∏–Ω–µ–Ω–∏—è (–î–ö –£–ú–ü–û)",
		"st_title_en": "Dvorets kulturyi Ufimskogo motorostroitelnogo proizvodstvennogo obyedineniya (DK UMPO)",
		"st_lat": "54.807022",
		"st_long": "56.11413",
		"direction": "–≤ —Å—Ç–æ—Ä. –ö–æ–ª—å—Ü–µ–≤–æ–π"
    },
    {
		"st_id": "793",
		"st_title": "–£–ª. –ß–µ—Ä–Ω–∏–∫–æ–≤—Å–∫–∞—è",
		"st_title_en": "Ul. CHernikovskaya",
		"st_lat": "54.8102416",
		"st_long": "56.1165924",
		"direction": "–≤ —Å—Ç–æ—Ä. –ü–µ—Ä–≤–æ–º–∞–π—Å–∫–æ–π"
    },
    {
		"st_id": "34",
		"st_title": "–£–ª. –ß–µ—Ä–Ω–∏–∫–æ–≤—Å–∫–∞—è",
		"st_title_en": "Ul. CHernikovskaya",
		"st_lat": "54.810203",
		"st_long": "56.116925",
		"direction": "–≤ —Å—Ç–æ—Ä. –ö–æ–ª—å—Ü–µ–≤–æ–π"
    },
    {
		"st_id": "770",
		"st_title": "–£–ª. –ë–æ—Ä–∏—Å–æ–≥–ª–µ–±—Å–∫–∞—è",
		"st_title_en": "Ul. Borisoglebskaya",
		"st_lat": "54.8115679",
		"st_long": "56.1196822",
		"direction": "–≤ —Ü–µ–Ω—Ç—Ä"
    },
    {
		"st_id": "33",
		"st_title": "–£–ª. –ë–æ—Ä–∏—Å–æ–≥–ª–µ–±—Å–∫–∞—è",
		"st_title_en": "Ul. Borisoglebskaya",
		"st_lat": "54.8110793",
		"st_long": "56.1195426",
		"direction": "–∏–∑ —Ü–µ–Ω—Ç—Ä–∞"
    },
    {
		"st_id": "769",
		"st_title": "–£–ª. –ë–æ–≥–¥–∞–Ω–∞ –•–º–µ–ª—å–Ω–∏—Ü–∫–æ–≥–æ",
		"st_title_en": "Ul. Bogdana Hmelnitskogo",
		"st_lat": "54.812412",
		"st_long": "56.123695",
		"direction": "–≤ —Ü–µ–Ω—Ç—Ä"
    },
    {
		"st_id": "31",
		"st_title": "–£–ª. –ë–æ–≥–¥–∞–Ω–∞ –•–º–µ–ª—å–Ω–∏—Ü–∫–æ–≥–æ",
		"st_title_en": "Ul. Bogdana Hmelnitskogo",
		"st_lat": "54.812017",
		"st_long": "56.124108",
		"direction": "–∏–∑ —Ü–µ–Ω—Ç—Ä–∞"
    },
	{
		"st_id": "1997",
		"st_title": "–£–ª. –ö–∞—Ä–∏–º–∞ –•–∞–∫–∏–º–æ–≤–∞",
		"st_title_en": "Ul. Karima Hakimova",
		"st_lat": "54.800868",
		"st_long": "56.117763",
		"direction": "–≤ —Ü–µ–Ω—Ç—Ä"
	},
	{
		"st_id": "1996",
		"st_title": "–£–ª. –ö–∞—Ä–∏–º–∞ –•–∞–∫–∏–º–æ–≤–∞",
		"st_title_en": "Ul. Karima Hakimova",
		"st_lat": "54.800456",
		"st_long": "56.118514",
		"direction": "–∏–∑ —Ü–µ–Ω—Ç—Ä–∞"
	},
    {
		"st_id": "806",
		"st_title": "–ê–¥–º–∏–Ω–∏—Å—Ç—Ä–∞—Ü–∏—è –ö–∞–ª–∏–Ω–∏–Ω—Å–∫–æ–≥–æ —Ä–∞–π–æ–Ω–∞",
		"st_title_en": "Administratsiya Kalininskogo rayona",
		"st_lat": "54.804313",
		"st_long": "56.118558",
		"direction": "–≤ —Ü–µ–Ω—Ç—Ä"
    },
    {
		"st_id": "79",
		"st_title": "–ê–¥–º–∏–Ω–∏—Å—Ç—Ä–∞—Ü–∏—è –ö–∞–ª–∏–Ω–∏–Ω—Å–∫–æ–≥–æ —Ä–∞–π–æ–Ω–∞",
		"st_title_en": "Administratsiya Kalininskogo rayona",
		"st_lat": "54.8039",
		"st_long": "56.119637",
		"direction": "–∏–∑ —Ü–µ–Ω—Ç—Ä–∞"
    },
    {
		"st_id": "1994",
		"st_title": "–£–ª. –°–µ—Ä–≥–µ—è –í–æ—Å—Ç—Ä–µ—Ü–æ–≤–∞",
		"st_title_en": "Ul. Sergeya Vostretsova",
		"st_lat": "54.799998",
		"st_long": "56.12715",
		"direction": "–∏–∑ —Ü–µ–Ω—Ç—Ä–∞"
    },
    {
		"st_id": "1995",
		"st_title": "–£–ª. –°–µ—Ä–≥–µ—è –í–æ—Å—Ç—Ä–µ—Ü–æ–≤–∞",
		"st_title_en": "Ul. Sergeya Vostretsova",
		"st_lat": "54.800342",
		"st_long": "56.127408",
		"direction": "–≤ —Ü–µ–Ω—Ç—Ä"
    },
    {
		"st_id": "78",
		"st_title": "–£–ª. –°—É–≤–æ—Ä–æ–≤–∞",
		"st_title_en": "Ul. Suvorova",
		"st_lat": "54.804505",
		"st_long": "56.124135",
		"direction": "–∏–∑ —Ü–µ–Ω—Ç—Ä–∞"
    },
    {
		"st_id": "807",
		"st_title": "–£–ª. –°—É–≤–æ—Ä–æ–≤–∞",
		"st_title_en": "Ul. Suvorova",
		"st_lat": "54.805292",
		"st_long": "56.127053",
		"direction": "–≤ —Ü–µ–Ω—Ç—Ä"
    },
    {
		"st_id": "1093",
		"st_title": "–£—Ñ–∞ –°–µ–≤–µ—Ä–Ω—ã–π –ê–í",
		"st_title_en": "Severnyiy KP",
		"st_lat": "54.8302487",
		"st_long": "56.0668822",
		"direction": "–∏–∑ —Ü–µ–Ω—Ç—Ä–∞"
    },
    {
		"st_id": [496, 1902],
		"st_title": "–£—Ñ–∞ –°–µ–≤–µ—Ä–Ω—ã–π –ê–í",
		"st_title_en": "Severnyiy avtovokzal",
		"st_lat": "54.830412",
		"st_long": "56.065464",
		"direction": "–∞–≤—Ç–æ–≤–æ–∫–∑–∞–ª"
    },
    {
		"st_id": "454",
		"st_title": "–£—Ñ–∞ –°–µ–≤–µ—Ä–Ω—ã–π –ê–í",
		"st_title_en": "Severnyiy KP",
		"st_lat": "54.830415",
		"st_long": "56.067264",
		"direction": "–≤ —Ü–µ–Ω—Ç—Ä"
    },
    {
        "st_id": "59",
        "st_title": "–£–ª. –î–∏–∑–µ–ª—å–Ω–∞—è",
        "st_title_en": "Ul. Dizelnaya",
        "st_lat": "54.813637",
        "st_long": "56.130457",
		"direction": "–≤ —Å—Ç–æ—Ä. –¥–µ–ø–æ"
    },
    {
        "st_id": "26",
        "st_title": "–¢—Ä–æ–ª–ª–µ–π–±—É—Å–Ω–æ–µ –¥–µ–ø–æ ‚Ññ2",
        "st_title_en": "Trolleybusnoe depo ‚Ññ2",
        "st_lat": "54.815095",
        "st_long": "56.129525",
		"direction": "–≤ —Å—Ç–æ—Ä. –¥–µ–ø–æ"
    }
]